,City Name,Latitude,Longitude,Max Temperature,Humidity,Cloudiness,Wind Speed,Country,Date
0,Itarema,-2.9248,-39.9167,79.3,76,11,12.26,BR,1610244700
1,Vaini,-21.2,-175.2,84.2,84,75,8.05,TO,1610244702
2,Tabas,33.5959,56.9244,28.4,37,0,2.3,IR,1610244703
3,Broken Hill,-31.95,141.4333,86.0,23,0,8.05,AU,1610244704
4,Marsabit,2.3284,37.9899,66.31,49,6,8.99,KE,1610244706
5,Oranjemund,-28.55,16.4333,61.75,86,1,14.7,NA,1610244708
6,Norman Wells,65.282,-126.8329,1.4,92,20,5.75,CA,1610244758
7,Saint-Philippe,-21.3585,55.7679,75.2,60,0,5.75,RE,1610244759
8,Nome,64.5011,-165.4064,-11.2,77,1,3.44,US,1610244696
9,Atuona,-9.8,-139.0333,78.08,78,77,14.18,PF,1610244761
10,Yellowknife,62.456,-114.3525,9.0,85,1,5.75,CA,1610244762
11,Hualmay,-11.0964,-77.6139,70.83,82,100,8.39,PE,1610244764
12,Abéché,13.8292,20.8324,69.24,23,0,15.5,TD,1610244765
13,Kavaratti,10.5669,72.642,81.59,77,99,11.83,IN,1610244766
14,Punta Arenas,-53.15,-70.9167,46.4,81,90,10.36,CL,1610244767
15,Souillac,-20.5167,57.5167,78.8,89,75,8.05,MU,1610244769
16,Hambantota,6.1241,81.1185,75.2,100,75,3.44,LK,1610244770
17,Faya,18.3851,42.4509,48.2,70,0,1.1,SA,1610244771
18,Ahipara,-35.1667,173.1667,67.53,80,62,8.25,NZ,1610244772
19,San Quintín,30.4833,-115.95,58.35,81,0,5.21,MX,1610244773
20,Rikitea,-23.1203,-134.9692,78.93,75,100,13.78,PF,1610244775
21,Saint George,37.1041,-113.5841,46.0,36,1,19.57,US,1610244673
22,Jamestown,42.097,-79.2353,30.0,93,90,5.75,US,1610244631
23,Port Elizabeth,-33.918,25.5701,68.0,83,0,16.11,ZA,1610244778
24,Bluff,-46.6,168.3333,64.0,72,98,21.99,NZ,1610244779
25,Coria,39.9879,-6.5377,37.0,78,87,4.0,ES,1610244783
26,Chakradharpur,22.7,85.6333,66.2,88,75,1.57,IN,1610244784
27,Constantine,36.365,6.6147,48.2,93,40,8.05,DZ,1610244785
28,Fairview,40.8126,-73.999,37.4,41,75,6.96,US,1610244786
29,Hermanus,-34.4187,19.2345,63.0,94,100,12.41,ZA,1610244782
30,Bredasdorp,-34.5322,20.0403,62.6,82,99,6.91,ZA,1610244791
31,Ribeira Grande,38.5167,-28.7,59.07,71,100,14.7,PT,1610244859
32,Esperance,-33.8667,121.9,69.8,78,90,21.85,AU,1610244859
33,Tahoua,14.8888,5.2692,74.32,19,0,11.27,NE,1610244860
34,Busselton,-33.65,115.3333,70.0,78,100,3.0,AU,1610244860
35,Tasiilaq,65.6145,-37.6368,19.4,45,75,4.61,GL,1610244860
36,Jining,35.405,116.5814,30.07,65,0,6.31,CN,1610244860
37,Hobart,-42.8794,147.3294,80.01,52,20,16.11,AU,1610244860
38,Petatlán,17.5167,-101.2667,72.91,77,68,2.89,MX,1610244860
39,Butaritari,3.0707,172.7902,81.41,81,100,19.91,KI,1610244860
40,Kapaa,22.0752,-159.319,79.0,83,75,6.91,US,1610244860
41,Srednekolymsk,67.45,153.6833,-28.14,84,96,5.79,RU,1610244860
42,Avarua,-21.2078,-159.775,84.2,61,20,12.66,CK,1610244860
43,Mayo,38.8876,-76.5119,41.0,56,1,10.36,US,1610244860
44,Taoudenni,22.6783,-3.9836,66.27,40,0,12.82,ML,1610244860
45,Hilo,19.7297,-155.09,80.6,57,20,11.5,US,1610244807
46,Port Hawkesbury,45.6169,-61.3485,34.0,93,75,2.3,CA,1610244861
47,Bethel,41.3712,-73.414,30.2,47,1,8.05,US,1610244861
48,Provideniya,64.3833,-173.3,-6.75,82,0,6.17,RU,1610244861
49,Port Alfred,-33.5906,26.891,69.01,86,27,5.99,ZA,1610244861
50,Cayenne,4.9333,-52.3333,75.2,100,75,3.44,GF,1610244861
51,Olafsvik,64.8945,-23.7142,26.64,89,89,7.83,IS,1610244861
52,Lebu,-37.6167,-73.65,54.63,87,0,6.91,CL,1610244861
53,Tingo María,-9.2895,-76.0088,69.48,84,98,2.53,PE,1610244861
54,Tuatapere,-46.1333,167.6833,64.0,72,89,21.99,NZ,1610244861
55,Khanbari,27.3747,87.2039,55.54,45,100,2.73,NP,1610244861
56,Saint Paul Harbor,57.79,-152.4072,37.4,87,90,25.32,US,1610244861
57,Carnarvon,-24.8667,113.6333,89.6,51,73,20.71,AU,1610244862
58,Pitimbu,-7.4706,-34.8086,78.8,83,0,4.61,BR,1610244862
59,Yevlax,40.6089,47.1492,26.6,93,0,6.67,AZ,1610244862
60,Severo-Kuril'sk,50.6789,156.125,23.34,86,95,15.88,RU,1610244862
61,Yashalta,46.3395,42.2762,41.11,83,100,11.27,RU,1610244862
62,Domoni,-12.2569,44.5319,80.04,81,89,11.12,KM,1610244862
63,Laas,46.6166,10.7002,19.99,73,0,6.91,IT,1610244862
64,Bokovskaya,49.229,41.8306,30.02,93,88,15.46,RU,1610244862
65,Ushuaia,-54.8,-68.3,46.4,87,75,19.57,AR,1610244788
66,Hong Kong,22.2855,114.1577,54.0,23,99,8.99,HK,1610244610
67,Pevek,69.7008,170.3133,-23.13,88,93,3.94,RU,1610244862
68,Mataura,-46.1927,168.8643,64.0,72,94,21.99,NZ,1610244863
69,Marrakesh,31.6315,-8.0083,46.4,81,75,11.5,MA,1610244863
70,Lucea,18.451,-78.1736,75.99,94,75,3.44,JM,1610244863
71,Port Lincoln,-34.7333,135.8667,86.36,26,52,11.16,AU,1610244863
72,Saskylakh,71.9167,114.0833,-26.0,84,100,8.48,RU,1610244863
73,Ust'-Karsk,52.7011,118.8077,-8.72,83,97,2.06,RU,1610244863
74,Katsuura,35.1333,140.3,41.0,33,20,5.75,JP,1610244863
75,Balikpapan,-1.2675,116.8289,82.4,78,40,4.61,ID,1610244863
76,Saldanha,-33.0117,17.9442,64.4,82,37,6.91,ZA,1610244863
77,Sitka,57.0531,-135.33,42.8,65,90,23.02,US,1610244863
78,Avera,33.194,-82.5271,39.2,87,1,5.75,US,1610244863
79,Dikson,73.5069,80.5464,-3.57,91,100,15.05,RU,1610244863
80,Lishan,31.8576,113.2951,37.11,59,100,1.63,CN,1610244864
81,Accrington,53.7538,-2.3586,35.01,89,100,5.01,GB,1610244864
82,Cairns,-16.9167,145.7667,93.0,66,75,6.91,AU,1610244864
83,Chingirlau,51.095,54.0814,25.48,97,100,18.59,KZ,1610244864
84,Auki,-8.7676,160.7034,86.38,67,98,4.79,SB,1610244864
85,Arraial do Cabo,-22.9661,-42.0278,76.91,91,0,15.7,BR,1610244864
86,São Filipe,14.8961,-24.4956,72.01,73,63,17.56,CV,1610244864
87,Lüderitz,-26.6481,15.1594,67.91,56,25,22.64,NA,1610244864
88,Charlestown,-32.95,151.6667,81.0,67,21,7.72,AU,1610244864
89,São José da Coroa Grande,-8.8978,-35.1478,77.9,78,100,10.25,BR,1610244864
90,Alta Floresta,-9.8756,-56.0861,74.75,89,76,4.43,BR,1610244864
91,Alihe,50.5667,123.7167,-1.66,86,94,3.2,CN,1610244865
92,San Patricio,28.017,-97.5169,55.4,76,90,12.66,US,1610244865
93,Albany,42.6001,-73.9662,27.0,57,100,3.0,US,1610244865
94,Dolores,-36.3132,-57.6792,66.24,62,0,12.88,AR,1610244865
95,Les Cayes,18.2,-73.75,75.43,80,97,4.12,HT,1610244629
96,Thompson,55.7435,-97.8558,5.0,92,1,6.91,CA,1610244865
97,Ponta do Sol,32.6667,-17.1,53.01,72,64,3.0,PT,1610244866
98,Lorengau,-2.0226,147.2712,86.32,57,100,3.76,PG,1610244866
99,Cabo San Lucas,22.8909,-109.9124,66.2,63,1,8.05,MX,1610244695
100,Qaqortoq,60.7167,-46.0333,42.8,39,75,24.16,GL,1610244866
101,Trofaiach,47.4167,15.0,28.99,48,100,1.99,AT,1610244866
102,Lat Yao,15.751,99.7893,75.0,52,2,5.37,TH,1610244866
103,Kvam,61.6656,9.6898,7.59,86,73,4.43,NO,1610244866
104,Hokitika,-42.7167,170.9667,62.35,68,90,12.39,NZ,1610244866
105,Shirokiy,49.758,129.523,-14.44,88,87,2.93,RU,1610244866
106,Evensk,61.95,159.2333,-0.33,81,57,11.18,RU,1610244866
107,Qasigiannguit,68.8193,-51.1922,19.4,49,75,13.8,GL,1610244866
108,Marsh Harbour,26.5412,-77.0636,64.69,66,46,13.76,BS,1610244866
109,Lefka,35.1106,32.8506,53.6,71,1,5.75,CY,1610244866
110,Chui,-33.6971,-53.4616,66.49,81,16,8.68,UY,1610244867
111,Codrington,-38.2667,141.9667,80.08,46,93,6.89,AU,1610244867
112,Arcata,40.8665,-124.0828,50.0,87,1,4.61,US,1610244575
113,Quimper,48.0,-4.1,32.0,80,0,6.91,FR,1610244867
114,Tiksi,71.6872,128.8694,-20.74,88,100,4.99,RU,1610244867
115,Salalah,17.0151,54.0924,64.4,34,0,6.91,OM,1610244841
116,Qaanaaq,77.484,-69.3632,-1.32,77,0,5.91,GL,1610245100
117,Iqaluit,63.7506,-68.5145,12.2,79,90,2.3,CA,1610245101
118,Bengkulu,-3.8004,102.2655,76.91,81,100,2.62,ID,1610245102
119,Montes Claros,-16.735,-43.8617,71.62,81,98,1.43,BR,1610245103
120,Klaksvík,62.2266,-6.589,30.2,86,75,10.36,FO,1610245104
121,Ranong,9.9658,98.6348,78.8,78,20,8.05,TH,1610245106
122,New Norfolk,-42.7826,147.0587,81.0,26,37,3.0,AU,1610245108
123,Airai,-8.9266,125.4092,72.57,91,100,1.48,TL,1610245018
124,Kaitangata,-46.2817,169.8464,66.99,53,76,15.01,NZ,1610245111
125,Alofi,-19.0595,-169.9187,84.2,74,13,11.5,NU,1610245112
126,Kamaishi,39.2667,141.8833,26.6,86,75,5.75,JP,1610245113
127,Lompoc,34.6391,-120.4579,55.99,62,1,8.05,US,1610244881
128,George Town,5.4112,100.3354,82.4,65,20,9.22,MY,1610244985
129,Barrow,71.2906,-156.7887,5.0,78,90,5.75,US,1610245116
130,Kalmunai,7.4167,81.8167,74.66,91,100,7.81,LK,1610245117
131,Touros,-5.1989,-35.4608,78.8,78,40,4.61,BR,1610245119
132,Kuldīga,56.974,21.9572,23.0,100,0,3.44,LV,1610245120
133,Annau,37.8876,58.516,24.8,100,0,4.61,TM,1610245121
134,Palmer,42.1584,-72.3287,30.99,55,20,12.66,US,1610245122
135,Harper,4.375,-7.7169,78.24,87,13,8.34,LR,1610245049
136,Lagoa,39.05,-27.9833,56.77,64,98,9.84,PT,1610245125
137,Kiryat Gat,31.61,34.7642,57.0,76,0,3.44,IL,1610245127
138,Nikolskoye,59.7035,30.7861,6.01,85,0,4.47,RU,1610245005
139,Derzhavīnsk,51.1,66.3167,7.36,91,100,15.37,KZ,1610245129
140,Kodinsk,58.6881,99.1844,-4.11,90,100,4.23,RU,1610245130
141,Banda Aceh,5.5577,95.3222,80.1,78,50,8.93,ID,1610245131
142,Bani Walid,31.7566,13.9942,66.54,30,37,13.27,LY,1610245132
143,Ussel,45.55,2.3167,28.99,33,82,4.0,FR,1610245133
144,Narsaq,60.9167,-46.05,42.8,39,75,24.16,GL,1610245134
145,Neryungri,56.6709,124.6491,-13.95,86,99,6.98,RU,1610245135
146,Mugur-Aksy,50.35,90.5,-6.02,70,29,5.55,RU,1610245137
147,Nioro,13.35,-15.75,70.99,39,0,11.36,GM,1610245138
148,Bisira,8.5196,-81.7115,57.72,100,98,5.86,PA,1610245139
149,Løding,67.3,14.75,30.2,69,75,17.27,NO,1610245140
150,Deputatsky,69.3,139.9,-21.8,88,100,2.28,RU,1610245141
151,La Ronge,55.1001,-105.2842,19.4,79,81,4.61,CA,1610245142
152,Cabedelo,-6.9811,-34.8339,78.8,83,0,4.61,BR,1610245143
153,Mahon,39.8885,4.2658,51.8,71,20,9.22,ES,1610245144
154,Khurai,24.0436,78.3319,61.52,88,0,4.23,IN,1610245145
155,Port Hardy,50.6996,-127.4199,42.8,93,90,31.07,CA,1610244907
156,Hithadhoo,-0.6,73.0833,81.1,74,100,11.21,MV,1610245038
157,Nanchang,28.6833,115.8833,39.43,63,0,5.17,CN,1610245149
158,Oistins,13.0667,-59.5333,80.6,74,20,23.02,BB,1610245150
159,Puerto Ayora,-0.7393,-90.3518,75.0,91,23,1.99,EC,1610245152
160,Te Anau,-45.4167,167.7167,57.25,79,96,6.82,NZ,1610245052
161,Benghazi,32.1167,20.0667,67.53,47,12,15.48,LY,1610245154
162,Khatanga,71.9667,102.5,-30.68,85,50,4.54,RU,1610245007
163,Meulaboh,4.1363,96.1285,78.08,81,96,2.93,ID,1610245156
164,Kavieng,-2.5744,150.7967,85.8,67,100,6.35,PG,1610245157
165,Lenger,42.183,69.8839,17.6,67,0,8.95,KZ,1610245158
166,Geraldton,-28.7667,114.6,77.0,65,90,18.41,AU,1610245159
167,Suntar,62.1444,117.6319,-33.09,83,74,4.16,RU,1610245160
168,Oranjestad,12.524,-70.027,80.6,78,20,13.8,AW,1610245161
169,Tuktoyaktuk,69.4541,-133.0374,-4.0,84,40,13.8,CA,1610245164
170,Longyearbyen,78.2186,15.6401,28.4,80,20,18.41,SJ,1610245165
171,Kirakira,-10.4544,161.9205,86.79,65,100,6.58,SB,1610245166
172,Sobolevo,54.4299,31.8996,11.23,96,86,5.91,RU,1610245167
173,Puerto Quijarro,-17.7833,-57.7667,81.73,62,4,0.96,BO,1610245168
174,Mar del Plata,-38.0023,-57.5575,68.0,72,0,13.8,AR,1610245151
175,Castro,-24.7911,-50.0119,64.45,97,100,7.56,BR,1610245170
176,Arrondissement de Lorient,47.8333,-3.25,35.6,69,0,13.8,FR,1610245171
177,Pisco,-13.7,-76.2167,69.8,83,0,11.5,PE,1610245172
178,Tual,-5.6667,132.75,84.18,76,93,10.02,ID,1610245173
179,Sulangan,11.1373,123.7228,79.0,89,100,21.45,PH,1610245174
180,Boussé,12.6606,-1.8922,71.6,43,0,2.3,BF,1610245176
181,Waitati,-45.75,170.5667,60.4,81,98,2.04,NZ,1610245177
182,Mackay,-21.15,149.2,73.99,94,90,10.36,AU,1610245082
183,Svendborg,55.0598,10.6068,36.0,100,90,6.91,DK,1610245179
184,Biak,-0.9131,122.8766,84.29,66,11,1.57,ID,1610245180
185,Grand Gaube,-20.0064,57.6608,77.0,86,1,3.0,MU,1610245074
186,Broome,42.2506,-75.833,26.01,74,1,8.05,US,1610245183
187,Lixouri,38.2019,20.4314,62.94,82,98,10.65,GR,1610245184
188,Inyonga,-6.7167,32.0667,62.4,96,100,1.68,TZ,1610245185
189,Upernavik,72.7868,-56.1549,11.07,83,100,10.67,GL,1610245186
190,Olinda,-8.0089,-34.8553,78.8,69,20,6.91,BR,1610245188
191,Santiago del Estero,-27.7951,-64.2615,82.2,57,60,3.8,AR,1610245104
192,Douentza,14.9951,-2.9517,68.7,24,0,2.59,ML,1610245191
193,Kapit,2.0167,112.9333,86.02,70,37,0.83,MY,1610245192
194,Brae,60.3964,-1.353,39.2,65,40,19.57,GB,1610245193
195,Farah,32.5,62.5,28.29,71,0,1.45,AF,1610245194
196,San Carlos del Zulia,9.0,-71.9135,74.66,89,52,3.65,VE,1610245195
197,Mayahi,13.9553,7.6712,70.72,22,0,10.54,NE,1610245197
198,Praia da Vitória,38.7333,-27.0667,57.0,82,20,8.52,PT,1610245198
199,Adet,11.2644,37.4888,52.45,65,93,3.89,ET,1610245199
200,Yerbogachën,61.2767,108.0108,-11.83,90,100,1.19,RU,1610245067
201,Yangi Marg`ilon,40.4272,71.7189,12.2,79,0,4.61,UZ,1610245011
202,Bambous Virieux,-20.3428,57.7575,78.8,89,75,8.05,MU,1610245202
203,Devils Lake,48.1128,-98.8651,23.0,93,90,9.22,US,1610245211
204,Fortuna,40.5982,-124.1573,50.0,87,1,8.05,US,1610245212
205,Mogadishu,2.0371,45.3438,74.98,74,0,18.99,SO,1610245213
206,Monrovia,6.3005,-10.7969,78.98,85,18,7.47,LR,1610245214
207,Vila,42.0304,-8.1588,48.99,65,0,13.8,PT,1610245215
208,Gilgit,35.9221,74.3087,22.44,56,0,4.38,PK,1610245216
209,Egvekinot,66.3167,-179.1667,-20.24,86,59,9.91,RU,1610245218
210,Coquimbo,-29.9533,-71.3436,57.2,82,20,2.3,CL,1610245112
211,Cherskiy,68.75,161.3,-30.41,84,82,3.42,RU,1610245221
212,Sungai Raya,0.7,108.9,83.41,74,96,4.65,ID,1610245223
213,Guerrero Negro,27.9769,-114.0611,59.45,78,0,12.17,MX,1610245014
214,Laguna,38.421,-121.4238,48.0,76,1,2.06,US,1610245012
215,Clyde River,70.4692,-68.5914,6.8,85,90,17.27,CA,1610245227
216,Port Blair,11.6667,92.75,81.48,76,58,14.83,IN,1610245228
217,Hilton Head,32.2163,-80.7526,44.01,75,90,6.91,US,1610245229
218,Beyneu,45.3167,55.2,27.39,91,26,12.75,KZ,1610245230
219,Harindānga,22.0383,88.3214,71.6,88,43,3.44,IN,1610245231
220,Mayumba,-3.432,10.6554,78.67,86,95,7.54,GA,1610245232
221,Padang,-0.9492,100.3543,78.8,78,40,2.3,ID,1610245234
222,Eskil,38.4017,33.4131,48.18,63,100,9.35,TR,1610245235
223,Thinadhoo,0.5333,72.9333,81.63,71,100,10.63,MV,1610245236
224,Yangjiang,21.85,111.9667,50.74,40,100,9.48,CN,1610245237
225,Nizhneudinsk,54.9076,99.0276,6.53,87,100,4.41,RU,1610245238
226,Buin,-33.7333,-70.75,66.0,39,0,9.22,CL,1610245239
227,Mahébourg,-20.4081,57.7,78.8,89,75,8.05,MU,1610245168
228,Billings Metropolitan Area,45.7833,-108.5007,28.99,93,75,3.78,US,1610244970
229,Omboué,-1.5746,9.2618,76.77,92,10,4.92,GA,1610245242
230,Anloga,5.7947,0.8973,80.6,89,20,4.61,GH,1610245244
231,Zapolyarnyy,69.4154,30.8136,6.8,92,90,14.97,RU,1610245245
232,Mount Isa,-20.7333,139.5,91.4,40,40,10.36,AU,1610245169
233,Noshiro,40.2039,140.0242,21.2,93,75,12.66,JP,1610245249
234,Uchiza,-8.4592,-76.4633,70.36,83,99,3.4,PE,1610245250
235,Port Hedland,-20.3167,118.5667,102.2,27,53,8.05,AU,1610245022
236,Cidreira,-30.1811,-50.2056,77.88,78,95,18.79,BR,1610245252
237,Cape Town,-33.9258,18.4232,66.99,77,75,18.41,ZA,1610245253
238,Ferrol,43.4832,-8.2369,46.0,76,75,9.22,ES,1610245254
239,Bojnourd,37.4747,57.329,21.2,68,0,9.66,IR,1610245255
240,Siālkot,32.5101,74.5431,46.4,100,90,4.12,PK,1610245257
241,Dolinsk,47.35,142.8,8.6,72,40,11.18,RU,1610245258
242,Hasaki,35.7333,140.8333,43.0,41,20,11.5,JP,1610245259
243,Hailey,43.5196,-114.3153,24.8,80,90,4.61,US,1610245260
244,Okato,-39.2,173.8833,68.0,76,28,10.0,NZ,1610245261
245,Lata,40.1629,-8.3327,42.01,73,92,3.0,PT,1610245262
246,State of Wyoming,43.0002,-107.5009,18.0,87,0,1.99,US,1610245263
247,Baruun-Urt,46.6806,113.2792,-5.67,86,95,9.86,MN,1610245265
248,Fort Nelson,58.8053,-122.7002,-0.4,85,40,4.61,CA,1610245266
249,Vanino,49.0869,140.2543,-7.49,69,1,8.05,RU,1610245268
250,Winburg,-28.518,27.0093,68.86,59,58,7.47,ZA,1610245269
251,Porto Santo,33.072,-16.3415,57.2,62,40,23.02,PT,1610245270
252,San Cristobal,7.7669,-72.225,64.92,89,98,1.45,VE,1610245271
253,Pemangkat,1.1667,108.9667,81.21,82,61,7.61,ID,1610245272
254,Malkerns,-26.5667,31.1833,64.0,90,42,1.39,SZ,1610245273
255,Praia,14.9215,-23.5087,71.6,64,40,21.85,CV,1610245274
256,Korla,41.7597,86.1469,11.25,87,0,2.1,CN,1610245275
257,Vanimo,-2.6741,141.3028,84.33,72,100,1.54,PG,1610245276
258,Dingle,10.9995,122.6711,75.99,91,100,13.06,PH,1610245277
259,Shingū,33.7333,135.9833,39.2,52,75,16.11,JP,1610245278
260,Verkhnevilyuysk,63.4453,120.3167,-25.65,85,98,5.7,RU,1610245281
261,Sauda,59.6506,6.3542,33.01,88,75,3.0,NO,1610245282
262,Moba,33.2288,105.0179,22.42,58,96,7.99,CN,1610245283
263,Kathmandu,27.7167,85.3167,42.8,87,20,2.3,NP,1610245063
264,Mongo,12.1844,18.693,67.8,24,46,9.15,TD,1610245286
265,Loikaw,19.6742,97.2094,71.22,69,18,1.54,MM,1610245287
266,Mareeba,-17.0,145.4333,93.0,70,75,9.22,AU,1610245288
267,Shimoda,34.6667,138.95,44.6,39,20,6.91,JP,1610245014
268,Yar-Sale,66.8333,70.8333,-17.82,89,94,11.5,RU,1610245036
269,Māngrol,21.1167,70.1167,65.88,64,14,12.37,IN,1610245104
270,Half Moon Bay,37.4636,-122.4286,53.6,62,20,3.44,US,1610245047
271,Alexandria,31.2156,29.9553,60.8,88,0,2.3,EG,1610245295
272,Ancud,-41.8697,-73.8203,53.01,87,90,9.22,CL,1610245296
273,Ulladulla,-35.35,150.4667,82.0,47,4,10.36,AU,1610245169
274,Saint-Augustin,51.226,-58.6502,28.24,96,100,11.97,CA,1610245298
275,Mount Gambier,-37.8333,140.7667,93.2,11,79,5.75,AU,1610245032
276,Mporokoso,-9.3727,30.125,59.45,98,100,2.35,ZM,1610245300
277,Tuburan,6.6439,122.2736,86.0,70,40,6.91,PH,1610245301
278,Vilyuysk,63.7553,121.6247,-23.69,86,100,5.88,RU,1610245302
279,Barra do Bugres,-15.0725,-57.1811,75.54,89,50,1.92,BR,1610245303
280,Owando,-0.4819,15.8999,71.73,82,37,2.21,CG,1610245305
281,Magelang,-7.4706,110.2178,84.2,70,20,3.44,ID,1610245306
282,Pasni,25.2631,63.471,58.82,36,0,19.73,PK,1610245307
283,Kemijärvi,66.7131,27.4306,1.74,93,80,5.1,FI,1610245308
284,Palu,-0.8917,119.8707,90.45,53,11,1.48,ID,1610245309
285,Marabba,12.35,32.1833,69.57,32,0,10.76,SD,1610245310
286,Murray Bridge,-35.1167,139.2667,98.01,19,39,8.66,AU,1610245311
287,Antofagasta,-23.65,-70.4,64.4,77,40,10.36,CL,1610245221
288,Grudziądz,53.4841,18.7537,28.99,95,84,7.0,PL,1610245314
289,Ufa,54.775,56.0375,21.2,100,90,6.71,RU,1610245315
290,Kajaani,64.2273,27.7285,-7.6,84,0,5.75,FI,1610245316
291,Villa María,-32.4075,-63.2402,75.36,44,0,5.53,AR,1610245226
292,Fayaoué,-20.65,166.5333,77.79,86,100,4.38,NC,1610245072
293,San Rafael del Sur,11.8485,-86.4384,80.6,65,20,9.22,NI,1610245320
294,Natal,-5.795,-35.2094,80.6,78,40,10.36,BR,1610245273
295,Orange Cove,36.6244,-119.3137,48.0,100,1,5.75,US,1610245322
296,Paris,48.8534,2.3488,32.0,100,75,9.22,FR,1610244522
297,Jangipur,24.4667,88.0667,67.6,56,17,4.09,IN,1610245324
298,Torbay,47.6666,-52.7314,32.0,86,1,13.8,CA,1610245325
299,Dingcheng,32.1272,115.0394,36.09,61,100,8.43,CN,1610245326
300,Hofn,64.2539,-15.2082,24.37,82,0,8.75,IS,1610245113
301,Ndola,-12.9587,28.6366,62.35,98,100,3.56,ZM,1610245329
302,Abnūb,27.2696,31.1511,51.8,82,0,6.91,EG,1610245331
303,Karratha,-20.7377,116.8463,105.48,16,10,15.35,AU,1610245332
304,College,64.8569,-147.8028,10.4,79,75,4.61,US,1610245333
305,Turan,16.0678,108.2208,64.4,82,75,2.3,VN,1610245213
306,Erenhot,43.6475,111.9767,-0.65,88,92,6.85,CN,1610245335
307,Kyritz,52.9421,12.397,33.01,93,97,4.29,DE,1610245336
308,Ilulissat,69.2167,-51.1,19.4,49,75,13.8,GL,1610245337
309,Haines Junction,60.7522,-137.5108,19.4,86,100,1.14,CA,1610245338
310,Musoma,-1.5,33.8,65.46,81,98,8.81,TZ,1610245109
311,Syamzha,60.0158,41.0614,2.44,94,89,6.35,RU,1610245341
312,Soyo,-6.1349,12.3689,76.64,82,93,6.96,AO,1610245342
313,Isangel,-19.55,169.2667,89.6,74,75,5.75,VU,1610245344
314,Mnogovershinnyy,53.9353,139.9242,-15.27,89,81,4.16,RU,1610245345
315,Maniitsoq,65.4167,-52.9,24.55,90,100,9.44,GL,1610245346
316,Nanortalik,60.1432,-45.2371,31.15,91,100,9.06,GL,1610245347
317,Paraná,-31.732,-60.5238,79.0,61,16,6.67,AR,1610245348
318,Kahului,20.8947,-156.47,78.8,65,40,9.22,US,1610245350
319,Vardø,70.3705,31.1107,21.33,94,100,16.46,NO,1610245351
320,Chitungwiza,-18.0127,31.0756,64.99,93,100,2.55,ZW,1610245352
321,Heiligenhafen,54.3667,10.9833,33.01,100,90,6.91,DE,1610245058
322,Clevelândia,-26.3958,-52.4708,65.25,98,100,1.45,BR,1610245355
323,Toppenish,46.3774,-120.3087,37.99,95,99,0.98,US,1610245127
324,Faanui,-16.4833,-151.75,81.23,71,5,11.1,PF,1610245357
325,Sabancuy,18.9667,-91.1833,67.51,79,0,10.02,MX,1610245359
326,Takoradze,4.8845,-1.7554,78.39,89,28,7.78,GH,1610245360
327,Cockburn Town,21.4612,-71.1419,78.03,76,100,7.96,TC,1610245361
328,Zhangjiakou,40.81,114.8794,6.98,77,1,4.56,CN,1610245362
329,Banamba,13.55,-7.45,72.43,20,0,6.31,ML,1610245364
330,Crib Point,-38.35,145.2,90.0,74,0,8.01,AU,1610245365
331,Altamont,42.2068,-121.7372,28.4,93,1,4.61,US,1610245366
332,Finnsnes,69.2296,17.9811,10.4,72,8,3.44,NO,1610245367
333,North Bend,43.4065,-124.2243,50.0,76,1,9.22,US,1610245370
334,Kagal'nitskaya,46.8806,40.1466,33.01,93,100,7.0,RU,1610245372
335,Agüimes,27.9054,-15.4461,57.2,77,40,8.05,ES,1610245373
336,Kangaatsiaq,68.3065,-53.4641,15.67,85,100,11.74,GL,1610245374
337,Bonthe,7.5264,-12.505,78.42,88,1,5.35,SL,1610245375
338,Flinders,-34.5833,150.8552,82.99,63,0,4.0,AU,1610245376
339,Mandalgovi,45.7625,106.2708,-0.81,83,100,7.96,MN,1610245377
340,Denpasar,-8.65,115.2167,86.0,74,40,2.3,ID,1610245228
341,Dalupirip,16.3258,120.7256,74.39,56,12,6.4,PH,1610245380
342,Caravelas,-17.7125,-39.2481,77.74,83,6,8.77,BR,1610245382
343,Argelia,2.2556,-77.2488,66.11,78,99,0.94,CO,1610245384
344,Port Moresby,-9.4431,147.1797,87.8,66,40,13.8,PG,1610245386
345,Iporá,-16.4419,-51.1178,71.76,88,100,4.32,BR,1610245387
346,Ormara,25.2088,64.6357,61.5,32,0,11.99,PK,1610245388
347,Senanga,-16.1167,23.2667,69.96,90,100,3.27,ZM,1610245389
348,Stromness,58.965,-3.296,35.6,75,40,12.66,GB,1610245117
349,Labuhan,-6.8844,112.2051,82.33,75,100,4.14,ID,1610245392
350,Tortolì,39.9256,9.6572,51.8,87,75,16.11,IT,1610245393
351,Yining,29.0361,114.5636,39.6,57,43,2.44,CN,1610245394
352,Kibala,9.1104,18.3463,64.4,72,0,3.51,TD,1610245395
353,Waipawa,-41.4122,175.5153,71.6,64,44,21.85,NZ,1610245396
354,Miles City,46.4083,-105.8406,28.4,86,90,5.66,US,1610245397
355,Buraidah,26.326,43.975,50.0,100,20,4.61,SA,1610245398
356,Wenling,28.3669,121.36,46.0,61,0,7.05,CN,1610245399
357,East London,-33.0153,27.9116,72.41,80,39,18.5,ZA,1610245400
358,Forsytheganj,52.6333,29.7333,21.51,98,81,6.06,BY,1610245401
359,Ermelo,-26.5333,29.9833,57.0,92,14,1.77,ZA,1610245402
360,Sikonge,-5.6333,32.7667,66.2,94,75,3.58,TZ,1610245404
361,Leningradskiy,69.3833,178.4167,-20.74,84,94,5.32,RU,1610245405
362,Kruisfontein,-34.0033,24.7314,66.99,80,0,1.01,ZA,1610245406
363,Nemuro,43.3236,145.575,19.4,58,20,1.14,JP,1610245407
364,Waddān,29.1614,16.139,66.97,26,25,10.4,LY,1610245408
365,Seoul,37.5683,126.9778,21.2,35,0,3.44,KR,1610245186
366,Ladário,-19.0047,-57.6017,82.67,60,2,1.7,BR,1610245410
367,Paraty,-23.2178,-44.7131,74.7,83,100,2.1,BR,1610245411
368,Liptovský Mikuláš,49.0806,19.6222,27.0,85,0,6.91,SK,1610245412
369,Teahupoo,-17.8333,-149.2667,84.2,65,75,10.36,PF,1610245413
370,San Fernando del Valle de Catamarca,-28.4696,-65.7852,64.99,84,7,1.99,AR,1610245366
371,Turbat,26.0023,63.044,50.04,35,0,18.92,PK,1610245415
372,Tabou,4.423,-7.3528,77.9,89,3,7.99,CI,1610245416
373,Makakilo City,21.3469,-158.0858,78.8,61,90,6.91,US,1610245283
374,Husavik,66.0449,-17.3389,21.2,58,75,10.36,IS,1610245419
375,Orchard Homes,46.8633,-114.0484,32.0,93,90,3.44,US,1610245273
376,Walvis Bay,-22.9575,14.5053,68.0,77,100,9.22,NA,1610245421
377,Samarai,-10.6167,150.6667,85.51,72,100,12.24,PG,1610245422
378,Cilegon,-6.0174,106.0538,82.4,78,40,12.66,ID,1610245423
379,Marzuq,14.4,46.4667,49.1,49,10,3.71,YE,1610245424
380,Pangnirtung,66.1451,-65.7125,8.6,66,90,0.51,CA,1610245425
381,Anadyr,64.75,177.4833,-29.0,68,28,13.42,RU,1610245426
382,Ust-Nera,64.5667,143.2,-30.98,74,98,1.05,RU,1610245427
383,Leshukonskoye,64.8989,45.7622,-0.6,93,69,5.3,RU,1610245428
384,Pahrump,36.2083,-115.9839,43.0,34,0,1.99,US,1610245429
385,Warren,39.4334,-84.1666,28.99,86,1,3.44,US,1610245432
386,Mitsamiouli,-11.3847,43.2844,81.86,79,17,14.88,KM,1610245433
387,Aksu,41.1231,80.2644,8.65,80,0,3.36,CN,1610245434
388,Alice Springs,-23.7,133.8833,87.8,25,40,9.22,AU,1610245148
389,Esna,25.2934,32.554,55.4,71,0,8.1,EG,1610245437
390,Hohhot,40.8106,111.6522,5.0,61,0,2.17,CN,1610245438
391,Cedar City,37.6775,-113.0619,30.2,64,90,8.05,US,1610245439
392,Narwar,25.65,77.9,59.07,81,0,3.0,IN,1610245440
393,Ovalle,-30.5983,-71.2003,55.6,73,0,1.36,CL,1610245441
394,Beringovskiy,63.05,179.3167,-14.67,88,98,11.9,RU,1610245442
395,Beloha,-25.1667,45.05,75.69,79,0,7.2,MG,1610245444
396,Bukachacha,52.9833,116.9167,-2.52,83,100,1.97,RU,1610245445
397,Keetmanshoop,-26.5833,18.1333,69.8,35,63,11.5,NA,1610245446
398,Verkhnyaya Maksakovka,61.635,50.9674,5.0,92,0,8.95,RU,1610245447
399,Myski,53.709,87.8014,5.92,90,100,3.74,RU,1610245448
400,Oktyabr'skiy,54.4815,53.471,24.75,97,100,10.74,RU,1610245449
401,Mossamedes,-15.1961,12.1522,70.74,71,92,3.62,AO,1610245450
402,Fort-Shevchenko,44.5086,50.263,38.25,86,7,10.31,KZ,1610245451
403,North Platte,41.1239,-100.7654,33.8,69,90,3.44,US,1610245452
404,Karymskoye,51.6167,114.35,-1.39,86,71,4.7,RU,1610245453
405,Ryl'sk,51.5655,34.6822,29.46,96,99,15.14,RU,1610245455
406,Umm Kaddadah,13.6017,26.6876,62.51,29,0,14.79,SD,1610245456
407,Ocós,14.5094,-92.1933,75.2,100,1,2.75,GT,1610245457
408,Ourinhos,-22.9789,-49.8706,70.12,94,100,7.38,BR,1610245316
409,Dvinskoy Bereznik,62.8551,42.7072,-0.15,93,82,2.59,RU,1610245459
410,Koumac,-20.5667,164.2833,86.34,69,99,13.67,NC,1610245460
411,Santa Cruz de la Sierra,-17.8,-63.1667,78.8,78,40,5.75,BO,1610245335
412,Hay River,60.8156,-115.7999,21.2,79,0,5.75,CA,1610245182
413,Adelaide,-34.9333,138.6,93.99,35,0,12.66,AU,1610245217
414,Nouadhibou,20.931,-17.0347,60.8,72,0,17.27,MR,1610245464
415,Teguise,29.0605,-13.564,59.0,67,0,12.66,ES,1610245465
416,Barauli,26.4,84.5833,60.87,81,100,7.11,IN,1610245466
417,Vila Velha,-20.3297,-40.2925,78.8,83,40,8.05,BR,1610245467
418,Ochakiv,46.6128,31.5498,30.2,100,100,5.59,UA,1610245469
419,Ambilobe,-13.2,49.05,74.07,93,82,2.21,MG,1610245471
420,Nahariya,33.0059,35.0941,59.0,43,0,3.0,IL,1610245472
421,Biltine,14.5333,20.9167,66.36,25,0,14.29,TD,1610245473
422,Slave Lake,55.2834,-114.769,12.2,85,22,4.61,CA,1610245413
423,Katherine,-14.4667,132.2667,91.4,55,0,8.05,AU,1610245475
424,Maragogi,-9.0122,-35.2225,77.59,79,61,9.86,BR,1610245476
425,Mariel,22.9875,-82.7536,66.2,59,75,5.75,CU,1610245477
426,Malatya Province,38.5,38.0,32.0,93,90,2.3,TR,1610245478
427,Lavrentiya,65.5833,-171.0,-11.96,86,0,5.99,RU,1610245479
428,Lázaro Cárdenas,17.9583,-102.2,74.68,79,74,3.76,MX,1610245480
429,Am Timan,11.0297,20.2827,65.03,26,82,5.7,TD,1610245481
430,Nefteyugansk,61.0998,72.6035,-4.0,84,90,2.24,RU,1610245483
431,Martinsicuro,42.8811,13.9145,39.99,92,100,3.0,IT,1610245484
432,Pontiac,42.6389,-83.2911,30.2,74,20,4.61,US,1610245485
433,Havre-St-Pierre,50.2334,-63.5986,21.2,58,1,11.5,CA,1610245486
434,Talca,-35.4333,-71.6667,64.4,42,50,5.75,CL,1610245277
435,Roald,62.5833,6.1333,32.0,100,90,17.27,NO,1610245488
436,Naze,28.3667,129.4833,53.6,66,75,11.5,JP,1610245489
437,Bignona,12.8103,-16.2264,68.94,50,1,12.1,SN,1610245490
438,Ponta Delgada,37.7333,-25.6667,53.6,58,75,4.61,PT,1610245491
439,Great Yarmouth,52.6083,1.7305,30.99,100,90,12.39,GB,1610245492
440,Asău,46.4333,26.4,28.4,100,75,1.39,RO,1610245493
441,Bandarbeyla,9.4942,50.8122,72.28,72,98,21.27,SO,1610245496
442,Dunedin,-45.8742,170.5036,62.83,69,100,1.16,NZ,1610245441
443,Garmsār,35.2182,52.3409,34.12,80,0,0.31,IR,1610245499
444,Tautira,-17.7333,-149.15,84.2,65,75,10.36,PF,1610245500
445,Klyuchi,52.2667,79.1667,8.85,89,100,16.51,RU,1610245501
446,Dilla,6.41,38.31,61.11,60,26,2.51,ET,1610245503
447,Escanaba,45.7453,-87.0646,28.0,86,90,3.44,US,1610245504
448,Harbour Breton,47.4833,-55.7983,37.04,92,97,8.21,CA,1610245506
449,Ambon City,-3.6954,128.1814,89.6,66,40,6.91,ID,1610245507
450,Lola,7.8,-8.5333,70.92,94,19,3.83,GN,1610245508
451,Chicama,-7.8447,-79.1469,70.56,80,82,5.95,PE,1610245509
452,Kulhudhuffushi,6.6221,73.07,80.64,75,100,7.63,MV,1610245510
453,Concordia,-31.393,-58.0209,71.01,91,0,2.91,AR,1610245511
454,Comodoro Rivadavia,-45.8667,-67.5,68.0,37,40,17.27,AR,1610245251
455,Tura,25.5198,90.2201,63.48,57,52,2.95,IN,1610245513
456,Goderich,43.7501,-81.7165,32.0,80,0,8.05,CA,1610245514
457,Pedroso,41.411,-8.749,42.8,70,0,8.05,PT,1610245516
458,Bukama,-9.2,25.85,68.85,95,100,0.31,CD,1610245517
459,Magdagachi,53.45,125.8,-0.83,80,73,10.27,RU,1610245518
460,Los Llanos de Aridane,28.6585,-17.9182,59.0,58,90,6.91,ES,1610245519
461,Vao,-22.6667,167.4833,79.47,87,100,17.63,NC,1610245520
462,Marabá,-5.3686,-49.1178,74.05,94,100,2.57,BR,1610245521
463,Vikhorevka,56.1201,101.1636,-2.0,84,40,4.47,RU,1610245522
464,Sokoto,13.0609,5.239,71.13,22,0,9.84,NG,1610245347
465,Conakry,9.538,-13.6773,79.88,76,3,7.65,GN,1610245524
466,Trincomalee,8.5711,81.2335,76.42,90,100,6.29,LK,1610245525
467,Inndyr,67.0338,14.0276,30.2,69,75,17.27,NO,1610245526
468,La Roche-sur-Yon,46.6667,-1.4333,30.2,93,0,12.66,FR,1610245527
469,Mankato,44.1636,-93.9994,19.4,100,90,9.22,US,1610245270
470,Port-Gentil,-0.7193,8.7815,80.28,81,99,7.27,GA,1610245530
471,Takaka,-40.85,172.8,75.0,49,62,7.0,NZ,1610245531
472,Serenje,-13.2325,30.2352,61.79,99,100,3.33,ZM,1610245532
473,Maceió,-9.6658,-35.7353,75.2,88,0,4.61,BR,1610245534
474,Ucluelet,48.9329,-125.5528,39.2,93,90,13.8,CA,1610245274
475,Philadelphia,39.9523,-75.1638,39.99,48,75,16.11,US,1610245245
476,Wewak,-3.5534,143.6268,84.72,71,100,3.74,PG,1610245537
477,Boyuibe,-20.4167,-63.2833,70.34,86,100,3.33,BO,1610245538
478,Pinhão,-25.6956,-51.6597,64.67,97,97,3.83,BR,1610245263
479,Constitución,-35.3333,-72.4167,52.09,83,39,6.62,CL,1610245540
480,St. George's,12.0564,-61.7485,80.6,83,20,21.85,GD,1610245449
481,Grindavik,63.8424,-22.4338,24.8,74,75,6.91,IS,1610245543
482,Springfield,37.2153,-93.2982,30.0,80,90,4.61,US,1610245411
483,Rivera,-30.9053,-55.5508,72.99,71,12,11.81,UY,1610245314
484,Bathsheba,13.2167,-59.5167,80.6,74,20,23.02,BB,1610245546
485,Eresós,39.1667,25.9333,64.0,57,100,8.01,GR,1610245547
486,Tara,56.8944,74.371,3.02,94,97,3.58,RU,1610245548
487,Mariental,-24.6333,17.9667,77.56,51,100,4.88,NA,1610245549
488,Poum,-20.2333,164.0167,82.53,80,100,20.69,NC,1610245550
489,Nara,34.6851,135.8049,39.99,56,20,11.5,JP,1610245551
490,Poros,37.4994,23.4536,63.0,87,47,1.01,GR,1610245552
491,Safi,32.2994,-9.2372,55.26,69,100,21.43,MA,1610245553
492,Houma,29.5958,-90.7195,43.0,75,1,3.44,US,1610245555
493,Thunder Bay,48.4001,-89.3168,19.4,93,40,8.05,CA,1610245315
494,Conceição do Castelo,-20.3683,-41.2439,69.1,95,100,3.49,BR,1610245558
495,Florida,28.7505,-82.5001,45.0,70,90,3.44,US,1610245559
496,Mehkar,20.1508,76.569,69.71,44,82,4.47,IN,1610245560
497,Xining,36.6167,101.7667,8.11,72,41,1.5,CN,1610245561
498,Nantucket,41.2835,-70.0995,34.0,86,90,14.97,US,1610245424
499,Manzanillo,20.3433,-77.1167,71.01,85,80,10.94,CU,1610245563
500,Boké,10.9409,-14.2967,71.42,93,76,1.34,GN,1610245564
501,Aklavik,68.2191,-135.0107,1.4,92,95,3.44,CA,1610245565
502,Drumheller,51.4617,-112.7101,15.8,85,91,5.75,CA,1610245508
503,Nishihara,26.1842,127.7558,60.8,44,40,11.5,JP,1610245568
504,Clonakilty,51.6231,-8.8706,33.8,69,40,6.91,IE,1610245569
505,Pochutla,15.7432,-96.4661,75.2,73,20,2.77,MX,1610245570
506,Wanning,18.8003,110.3967,59.95,80,100,10.42,CN,1610245571
507,Arica,-18.475,-70.3042,69.8,78,0,2.3,CL,1610245466
508,Hamilton,39.1834,-84.5333,28.0,86,1,1.52,US,1610245573
509,Meadow Lake,34.8014,-106.5436,33.8,64,90,12.66,US,1610245574
510,Lemgo,52.0333,8.9,35.01,93,45,4.61,DE,1610245575
511,Xuanzhou,30.9525,118.7553,35.74,68,91,3.49,CN,1610245576
512,Melito di Porto Salvo,37.9222,15.7714,62.01,94,20,8.05,IT,1610245577
513,Diamantino,-14.4086,-56.4461,75.31,85,58,2.75,BR,1610245578
514,Inta,66.0317,60.1659,-5.03,88,0,6.13,RU,1610245581
515,Diplo,24.4667,69.584,55.92,39,0,12.8,PK,1610245582
516,Ambulu,-8.345,113.6058,84.94,70,27,1.81,ID,1610245584
517,Yaan,7.3833,8.5667,74.62,64,6,4.32,NG,1610245585
518,Ormond Beach,29.2858,-81.0559,44.6,81,1,5.75,US,1610245588
519,Yarim,14.298,44.3779,42.71,62,0,3.53,YE,1610245589
520,Khandyga,62.6667,135.6,-32.08,84,100,1.01,RU,1610245590
521,Suez,29.9737,32.5263,58.62,72,0,9.51,EG,1610245591
522,Ketchikan,55.3422,-131.6461,39.2,93,90,16.11,US,1610245497
523,Kloulklubed,7.0419,134.2556,84.2,79,75,9.22,PW,1610245594
524,Kununurra,-15.7667,128.7333,95.0,52,0,3.44,AU,1610245595
525,Wanlaweyn,2.6185,44.8938,70.11,68,0,9.19,SO,1610245596
526,Mahon,39.8885,4.2658,51.8,71,20,9.22,ES,1610245597
527,Penzance,50.1186,-5.5371,35.01,100,25,6.91,GB,1610245598
528,Vila Franca do Campo,37.7167,-25.4333,53.6,58,75,4.61,PT,1610245599
529,Yumen,40.2833,97.2,11.07,87,44,29.28,CN,1610245600
